{"type":"FeatureCollection","features":[
{
"type":"Feature",
"geometry":{"type":"Point","coordinates":[37.0992622,45.3570405]},
"properties":{"Type":"volcano","Name":"Тиздар (грязевой вулкан)","Name(en)":"No data","Name(ru)":"No data","Ele":0,"Status":"No data"}
},
{
"type":"Feature",
"geometry":{"type":"Point","coordinates":[37.4357067,45.2517448]},
"properties":{"Type":"volcano","Name":"Грязевой вулкан гора Гнилая","Name(en)":"No data","Name(ru)":"No data","Ele":0,"Status":"No data"}
},
{
"type":"Feature",
"geometry":{"type":"Point","coordinates":[36.9221696,45.4317654]},
"properties":{"Type":"volcano","Name":"Плевак (грязевой вулкан)","Name(en)":"No data","Name(ru)":"No data","Ele":0,"Status":"No data"}
},
{
"type":"Feature",
"geometry":{"type":"Point","coordinates":[37.0820445,45.3121182]},
"properties":{"Type":"volcano","Name":"Ахтанизовская сопка (грязевой вулкан)","Name(en)":"No data","Name(ru)":"No data","Ele":0,"Status":"No data"}
},
{
"type":"Feature",
"geometry":{"type":"Point","coordinates":[37.6110652,45.0709087]},
"properties":{"Type":"volcano","Name":"Грязевой вулкан 'Шуго'","Name(en)":"No data","Name(ru)":"No data","Ele":0,"Status":"No data"}
},
{
"type":"Feature",
"geometry":{"type":"Point","coordinates":[37.7236492,45.005608]},
"properties":{"Type":"volcano","Name":"Грязевой вулкан","Name(en)":"No data","Name(ru)":"No data","Ele":0,"Status":"No data"}
},
{}]}